{"iata": "ABI" , "icao": "KABI" , "airportName": "Abilene Regional Airport" , "airportCity": "Abilene" , "airporLat" : "32.4113333" , "airportLon": "-99.6818889" , "airportElevation": 1790.6 , "runways": 4}
{"iata": "ABI" , "icao": "KABI" , "airportName": "Abilene Regional Airport" , "airportCity": "Abilene" , "airporLat" : "32.4113333" , "airportLon": "-99.6818889" , "airportElevation": 1790.6 , "runways":22 }
{"iata": "ABI" , "icao": "KABI" , "airportName": "Abilene Regional Airport" , "airportCity": "Abilene" , "airporLat" : "32.4113333" , "airportLon": "-99.6818889" , "airportElevation": 1790.6 , "runways": "17R" }
{"iata": "ABI" , "icao": "KABI" , "airportName": "Abilene Regional Airport" , "airportCity": "Abilene" , "airporLat" : "32.4113333" , "airportLon": "-99.6818889" , "airportElevation": 1790.6 , "runways": "35L"}
{"iata": "ABI" , "icao": "KABI" , "airportName": "Abilene Regional Airport" , "airportCity": "Abilene" , "airporLat" : "32.4113333" , "airportLon": "-99.6818889" , "airportElevation": 1790.6 , "runways": "17L" }
{"iata": "ABI" , "icao": "KABI" , "airportName": "Abilene Regional Airport" , "airportCity": "Abilene" , "airporLat" : "32.4113333" , "airportLon": "-99.6818889" , "airportElevation": 1790.6 , "runways": "35R"}
{"iata": "AMA" , "icao": "KAMA" , "airportName": "Rick Husband Amarillo International Airport" , "airportCity": "Amarillo" , "airporLat" : "335.2193611" , "airportLon": "-101.7059167" , "airportElevation": 3606.6, "runways": 4}
{"iata": "AMA" , "icao": "KAMA" , "airportName": "Rick Husband Amarillo International Airport" , "airportCity": "Amarillo" , "airporLat" : "35.2193611" , "airportLon": "-101.7059167" , "airportElevation": 3606.6, "runways":22 }
{"iata": "AMA" , "icao": "KAMA" , "airportName": "Rick Husband Amarillo International Airport" , "airportCity": "Amarillo" , "airporLat" : "35.2193611" , "airportLon": "-101.7059167" , "airportElevation": 3606.6, "runways": 13}
{"iata": "AMA" , "icao": "KAMA" , "airportName": "Rick Husband Amarillo International Airport" , "airportCity": "Amarillo" , "airporLat" : "335.2193611" , "airportLon": "-101.7059167" , "airportElevation": 3606.6, "runways": "31"}
{"iata": "AUS" , "icao": "KAUS" , "airportName": "Austin-Bergstrom International Airport" , "airportCity": "Austin" , "airporLat" : "30.1945278" , "airportLon": "-97.6698889" , "airportElevation": 541.6, "runways": "17R" }
{"iata": "AUS" , "icao": "KAUS" , "airportName": "Austin-Bergstrom International Airport" , "airportCity": "Austin" , "airporLat" : "30.1945278" , "airportLon": "-97.6698889" , "airportElevation": 541.6, "runways": "35L"}
{"iata": "AUS" , "icao": "KAUS" , "airportName": "Austin-Bergstrom International Airport" , "airportCity": "Austin" , "airporLat" : "30.1945278" , "airportLon": "-97.6698889" , "airportElevation": 541.6, "runways": "17L" }
{"iata": "AUS" , "icao": "KAUS" , "airportName": "Austin-Bergstrom International Airport" , "airportCity": "Austin" , "airporLat" : "30.1945278" , "airportLon": "-97.6698889" , "airportElevation": 541.6, "runways": "35R"}
{"iata": "BPT" , "icao": "KBPT" , "airportName": "Jack Brooks Regional Airport" , "airportCity": "Beaumont/Port Arthur" , "airporLat" : "29.9508333" , "airportLon": "-94.0206944" , "airportElevation": 15.4, "runways": 12 }
{"iata": "BPT" , "icao": "KBPT" , "airportName": "Jack Brooks Regional Airport" , "airportCity": "Beaumont/Port Arthur" , "airporLat" : "29.9508333" , "airportLon": "-94.0206944" , "airportElevation": 15.4, "runways": 30}
{"iata": "BPT" , "icao": "KBPT" , "airportName": "Jack Brooks Regional Airport" , "airportCity": "Beaumont/Port Arthur" , "airporLat" : "29.9508333" , "airportLon": "-94.0206944" , "airportElevation": 15.4, "runways": 16 }
{"iata": "BPT" , "icao": "KBPT" , "airportName": "Jack Brooks Regional Airport" , "airportCity": "Beaumont/Port Arthur" , "airporLat" : "29.9508333" , "airportLon": "-94.0206944" , "airportElevation": 15.4, "runways": 34}
{"iata": "BRO" , "icao": "KBRO" , "airportName": "Brownsville/South Padre Island International Airport" , "airportCity": "Brownsville" , "airporLat" : "25.9061354" , "airportLon":"-97.4259949" , "airportElevation": 22.4, "runways": 13}
{"iata": "BRO" , "icao": "KBRO" , "airportName": "Brownsville/South Padre Island International Airport" , "airportCity": "Brownsville" , "airporLat" : "25.9061354" , "airportLon":"-97.4259949" , "airportElevation": 22.4, "runways": 31}
{"iata": "BRO" , "icao": "KBRO" , "airportName": "Brownsville/South Padre Island International Airport" , "airportCity": "Brownsville" , "airporLat" : "25.9061354" , "airportLon":"-97.4259949" , "airportElevation": 22.4, "runways": 18}
{"iata": "BRO" , "icao": "KBRO" , "airportName": "Brownsville/South Padre Island International Airport" , "airportCity": "Brownsville" , "airporLat" : "25.9061354" , "airportLon":"-97.4259949" , "airportElevation": 22.4, "runways": 36}
{"iata": "CLL" , "icao": "KCLL" , "airportName": "Easterwood Airport" , "airportCity": "College Station" , "airporLat" : "30.5885833" , "airportLon":"-96.3638333" , "airportElevation": 320.6 , "runways": 16}
{"iata": "CLL" , "icao": "KCLL" , "airportName": "Easterwood Airport" , "airportCity": "College Station" , "airporLat" : "30.5885833" , "airportLon":"-96.3638333" , "airportElevation": 320.6, "runways": 34}
{"iata": "CLL" , "icao": "KCLL" , "airportName": "Easterwood Airport" , "airportCity": "College Station" , "airporLat" : "30.5885833" , "airportLon":"-96.3638333" , "airportElevation": 320.6, "runways": 10}
{"iata": "CLL" , "icao": "KCLL" , "airportName": "Easterwood Airport" , "airportCity": "College Station" , "airporLat" : "30.5885833" , "airportLon":"-96.3638333" , "airportElevation": 320.6, "runways": 28}
{"iata": "CLL" , "icao": "KCLL" , "airportName": "Easterwood Airport" , "airportCity": "College Station" , "airporLat" : "30.5885833" , "airportLon":"-96.3638333" , "airportElevation": 320.6 , "runways": 4}
{"iata": "CLL" , "icao": "KCLL" , "airportName": "Easterwood Airport" , "airportCity": "College Station" , "airporLat" : "30.5885833" , "airportLon":"-96.3638333" , "airportElevation": 320.6, "runways": 33}
{"iata": "CRP" , "icao": "KCRP" , "airportName": "Corpus Christi International Airport" , "airportCity": "Corpus Christi" , "airporLat" : "27.7721944" , "airportLon":"-97.5024167" , "airportElevation": 46.1, "runways": 13}
{"iata": "CRP" , "icao": "KCRP" , "airportName": "Corpus Christi International Airport" , "airportCity": "Corpus Christi" , "airporLat" : "27.7721944" , "airportLon":"-97.5024167" , "airportElevation": 46.1, "runways": 31}
{"iata": "CRP" , "icao": "KCRP" , "airportName": "Corpus Christi International Airport" , "airportCity": "Corpus Christi" , "airporLat" : "27.7721944" , "airportLon":"-97.5024167" , "airportElevation": 46.1, "runways": 18}
{"iata": "CRP" , "icao": "KCRP" , "airportName": "Corpus Christi International Airport" , "airportCity": "Corpus Christi" , "airporLat" : "27.7721944" , "airportLon":"-97.5024167" , "airportElevation": 46.1, "runways": 36}
{"iata": "DAL" , "icao": "KDAL" , "airportName": "Dallas Love Field" , "airportCity": "Dallas" , "airporLat" : "32.8471122" , "airportLon":"-96.8517719" , "airportElevation": 486.9, "runways": "13R"}
{"iata": "DAL" , "icao": "KDAL" , "airportName": "Dallas Love Field" , "airportCity": "Dallas" , "airporLat" : "32.8471122" , "airportLon":"-96.8517719" , "airportElevation": 486.9, "runways": "31L"}
{"iata": "DAL" , "icao": "KDAL" , "airportName": "Dallas Love Field" , "airportCity": "Dallas" , "airporLat" : "32.8471122" , "airportLon":"-96.8517719" , "airportElevation": 486.9, "runways": "13L"}
{"iata": "DAL" , "icao": "KDAL" , "airportName": "Dallas Love Field" , "airportCity": "Dallas" , "airporLat" : "32.8471122" , "airportLon":"-96.8517719" , "airportElevation": 486.9, "runways": "31R"}
{"iata": "DFW" , "icao": "KDFW" , "airportName": "Dallas/Fort Worth International Airport" , "airportCity": "Dallas/Fort Worth" , "airporLat" : "32.8972316" , "airportLon":"-97.0376949" , "airportElevation": 607 , "runways": "17C"}
{"iata": "DFW" , "icao": "KDFW" , "airportName": "Dallas/Fort Worth International Airport" , "airportCity": "Dallas/Fort Worth" , "airporLat" : "32.8972316" , "airportLon":"-97.0376949" , "airportElevation": 607, "runways": "35C"}
{"iata": "DFW" , "icao": "KDFW" , "airportName": "Dallas/Fort Worth International Airport" , "airportCity": "Dallas/Fort Worth" , "airporLat" : "32.8972316" , "airportLon":"-97.0376949" , "airportElevation": 607, "runways": "17R"}
{"iata": "DFW" , "icao": "KDFW" , "airportName": "Dallas/Fort Worth International Airport" , "airportCity": "Dallas/Fort Worth" , "airporLat" : "32.8972316" , "airportLon":"-97.0376949" , "airportElevation": 607, "runways": "35L"}
{"iata": "DFW" , "icao": "KDFW" , "airportName": "Dallas/Fort Worth International Airport" , "airportCity": "Dallas/Fort Worth" , "airporLat" : "32.8972316" , "airportLon":"-97.0376949" , "airportElevation": 607, "runways": "18L"}
{"iata": "DFW" , "icao": "KDFW" , "airportName": "Dallas/Fort Worth International Airport" , "airportCity": "Dallas/Fort Worth" , "airporLat" : "32.8972316" , "airportLon":"-97.0376949" , "airportElevation": 607, "runways": "36R"}
{"iata": "DFW" , "icao": "KDFW" , "airportName": "Dallas/Fort Worth International Airport" , "airportCity": "Dallas/Fort Worth" , "airporLat" : "32.8972316" , "airportLon":"-97.0376949" , "airportElevation": 607, "runways": "18R"}
{"iata": "DFW" , "icao": "KDFW" , "airportName": "Dallas/Fort Worth International Airport" , "airportCity": "Dallas/Fort Worth" , "airporLat" : "32.8972316" , "airportLon":"-97.0376949" , "airportElevation": 607, "runways": "36L"}
{"iata": "DFW" , "icao": "KDFW" , "airportName": "Dallas/Fort Worth International Airport" , "airportCity": "Dallas/Fort Worth" , "airporLat" : "32.8972316" , "airportLon":"-97.0376949" , "airportElevation": 607, "runways": "13R"}
{"iata": "DFW" , "icao": "KDFW" , "airportName": "Dallas/Fort Worth International Airport" , "airportCity": "Dallas/Fort Worth" , "airporLat" : "32.8972316" , "airportLon":"-97.0376949" , "airportElevation": 607, "runways": "31L"}
{"iata": "DFW" , "icao": "KDFW" , "airportName": "Dallas/Fort Worth International Airport" , "airportCity": "Dallas/Fort Worth" , "airporLat" : "32.8972316" , "airportLon":"-97.0376949" , "airportElevation": 607, "runways": "13L"}
{"iata": "DFW" , "icao": "KDFW" , "airportName": "Dallas/Fort Worth International Airport" , "airportCity": "Dallas/Fort Worth" , "airporLat" : "32.8972316" , "airportLon":"-97.0376949" , "airportElevation": 607, "runways": "31R"}
{"iata": "DFW" , "icao": "KDFW" , "airportName": "Dallas/Fort Worth International Airport" , "airportCity": "Dallas/Fort Worth" , "airporLat" : "32.8972316" , "airportLon":"-97.0376949" , "airportElevation": 607, "runways": "17L"}
{"iata": "DFW" , "icao": "KDFW" , "airportName": "Dallas/Fort Worth International Airport" , "airportCity": "Dallas/Fort Worth" , "airporLat" : "32.8972316" , "airportLon":"-97.0376949" , "airportElevation": 607, "runways": "35R"}
{"iata": "DRT" , "icao": "KDRT" , "airportName": "Del Rio International Airport" , "airportCity": "Del Rio" , "airporLat" : "29.3742069" , "airportLon":"-100.9271569" , "airportElevation": 1002.2, "runways": 13}
{"iata": "DRT" , "icao": "KDRT" , "airportName": "Del Rio International Airport" , "airportCity": "Del Rio" , "airporLat" : "29.3742069" , "airportLon":"-100.9271569" , "airportElevation": 1002.2, "runways": 31}
{"iata": "ELP" , "icao": "KELP" , "airportName": "El Paso International Airport" , "airportCity": "El Paso" , "airporLat" : "31.8073333" , "airportLon": "-106.3763611" , "airportElevation": 3961.7, "runways": 4}
{"iata": "ELP" , "icao": "KELP" , "airportName": "El Paso International Airport" , "airportCity": "El Paso" , "airporLat" : "31.8073333" , "airportLon": "-106.3763611" , "airportElevation": 3961.7, "runways": 22}
{"iata": "ELP" , "icao": "KELP" , "airportName": "El Paso International Airport" , "airportCity": "El Paso" , "airporLat" : "31.8073333" , "airportLon": "-106.3763611" , "airportElevation": 3961.7, "runways": "8R"}
{"iata": "ELP" , "icao": "KELP" , "airportName": "El Paso International Airport" , "airportCity": "El Paso" , "airporLat" : "31.8073333" , "airportLon": "-106.3763611" , "airportElevation": 3961.7, "runways": "26L"}
{"iata": "ELP" , "icao": "KELP" , "airportName": "El Paso International Airport" , "airportCity": "El Paso" , "airporLat" : "31.8073333" , "airportLon": "-106.3763611" , "airportElevation": 3961.7, "runways": "8L"}
{"iata": "ELP" , "icao": "KELP" , "airportName": "El Paso International Airport" , "airportCity": "El Paso" , "airporLat" : "31.8073333" , "airportLon": "-106.3763611" , "airportElevation": 3961.7, "runways": "26R"}
{"iata": "GRK" , "icao": "KGRK" , "airportName": "Killeen–Fort Hood Regional Airport" , "airportCity": "Fort Hood/Killeen" , "airporLat" : "31.0672500" , "airportLon":"-97.8289167" , "airportElevation": 1015.3, "runways": 15}
{"iata": "GRK" , "icao": "KGRK" , "airportName": "Killeen–Fort Hood Regional Airport" , "airportCity": "Fort Hood/Killeen" , "airporLat" : "31.0672500" , "airportLon":"-97.8289167" , "airportElevation": 1015.3, "runways": 33}
{"iata": "HRL" , "icao": "KHRL" , "airportName": "Valley International Airport" , "airportCity": "Harlingen" , "airporLat" : "26.2271111" , "airportLon":"-97.6551389" , "airportElevation": 36.3, "runways": "17R"}
{"iata": "HRL" , "icao": "KHRL" , "airportName": "Valley International Airport" , "airportCity": "Harlingen" , "airporLat" : "26.2271111" , "airportLon":"-97.6551389" , "airportElevation": 36.3, "runways": "35L"}
{"iata": "HRL" , "icao": "KHRL" , "airportName": "Valley International Airport" , "airportCity": "Harlingen" , "airporLat" : "26.2271111" , "airportLon":"-97.6551389" , "airportElevation": 36.3, "runways": 13}
{"iata": "HRL" , "icao": "KHRL" , "airportName": "Valley International Airport" , "airportCity": "Harlingen" , "airporLat" : "26.2271111" , "airportLon":"-97.6551389" , "airportElevation": 36.3, "runways": 31}
{"iata": "HRL" , "icao": "KHRL" , "airportName": "Valley International Airport" , "airportCity": "Harlingen" , "airporLat" : "26.2271111" , "airportLon":"-97.6551389" , "airportElevation": 36.3, "runways": "17L"}
{"iata": "HRL" , "icao": "KHRL" , "airportName": "Valley International Airport" , "airportCity": "Harlingen" , "airporLat" : "26.2271111" , "airportLon":"-97.6551389" , "airportElevation": 36.3, "runways": "35R"}
{"iata": "IAH" , "icao": "KIAH" , "airportName": "George Bush Intercontinental Airport" , "airportCity": "Houston" , "airporLat" : "29.9844444" , "airportLon":"-95.3414444" , "airportElevation": 	96.4, "runways": "15L"}
{"iata": "IAH" , "icao": "KIAH" , "airportName": "George Bush Intercontinental Airport" , "airportCity": "Houston" , "airporLat" : "29.9844444" , "airportLon":"-95.3414444" , "airportElevation": 	96.4, "runways": "33R"}
{"iata": "IAH" , "icao": "KIAH" , "airportName": "George Bush Intercontinental Airport" , "airportCity": "Houston" , "airporLat" : "29.9844444" , "airportLon":"-95.3414444" , "airportElevation": 	96.4, "runways": 9}
{"iata": "IAH" , "icao": "KIAH" , "airportName": "George Bush Intercontinental Airport" , "airportCity": "Houston" , "airporLat" : "29.9844444" , "airportLon":"-95.3414444" , "airportElevation": 	96.4, "runways": 27}
{"iata": "IAH" , "icao": "KIAH" , "airportName": "George Bush Intercontinental Airport" , "airportCity": "Houston" , "airporLat" : "29.9844444" , "airportLon":"-95.3414444" , "airportElevation": 	96.4, "runways": "15R"}
{"iata": "IAH" , "icao": "KIAH" , "airportName": "George Bush Intercontinental Airport" , "airportCity": "Houston" , "airporLat" : "29.9844444" , "airportLon":"-95.3414444" , "airportElevation": 	96.4, "runways": "33L"}
{"iata": "IAH" , "icao": "KIAH" , "airportName": "George Bush Intercontinental Airport" , "airportCity": "Houston" , "airporLat" : "29.9844444" , "airportLon":"-95.3414444" , "airportElevation": 	96.4, "runways": "8R"}
{"iata": "IAH" , "icao": "KIAH" , "airportName": "George Bush Intercontinental Airport" , "airportCity": "Houston" , "airporLat" : "29.9844444" , "airportLon":"-95.3414444" , "airportElevation": 	96.4, "runways": "26L"}
{"iata": "IAH" , "icao": "KIAH" , "airportName": "George Bush Intercontinental Airport" , "airportCity": "Houston" , "airporLat" : "29.9844444" , "airportLon":"-95.3414444" , "airportElevation": 	96.4, "runways": "8L"}
{"iata": "IAH" , "icao": "KIAH" , "airportName": "George Bush Intercontinental Airport" , "airportCity": "Houston" , "airporLat" : "29.9844444" , "airportLon":"-95.3414444" , "airportElevation": 	96.4, "runways": "26R"}
{"iata": "HOU" , "icao": "KHOU" , "airportName": "William P. Hobby Airport" , "airportCity": "Houston" , "airporLat" : "29.6454167" , "airportLon":"-95.2788889" , "airportElevation": 46.3, "runways": 4}
{"iata": "HOU" , "icao": "KHOU" , "airportName": "William P. Hobby Airport" , "airportCity": "Houston" , "airporLat" : "29.6454167" , "airportLon":"-95.2788889" , "airportElevation": 46.3, "runways": 22}
{"iata": "HOU" , "icao": "KHOU" , "airportName": "William P. Hobby Airport" , "airportCity": "Houston" , "airporLat" : "29.6454167" , "airportLon":"-95.2788889" , "airportElevation": 46.3, "runways": "13R"}
{"iata": "HOU" , "icao": "KHOU" , "airportName": "William P. Hobby Airport" , "airportCity": "Houston" , "airporLat" : "29.6454167" , "airportLon":"-95.2788889" , "airportElevation": 46.3, "runways": "31L"}
{"iata": "HOU" , "icao": "KHOU" , "airportName": "William P. Hobby Airport" , "airportCity": "Houston" , "airporLat" : "29.6454167" , "airportLon":"-95.2788889" , "airportElevation": 46.3, "runways": 17}
{"iata": "HOU" , "icao": "KHOU" , "airportName": "William P. Hobby Airport" , "airportCity": "Houston" , "airporLat" : "29.6454167" , "airportLon":"-95.2788889" , "airportElevation": 46.3, "runways": 35}
{"iata": "HOU" , "icao": "KHOU" , "airportName": "William P. Hobby Airport" , "airportCity": "Houston" , "airporLat" : "29.6454167" , "airportLon":"-95.2788889" , "airportElevation": 46.3, "runways": "13L"}
{"iata": "HOU" , "icao": "KHOU" , "airportName": "William P. Hobby Airport" , "airportCity": "Houston" , "airporLat" : "29.6454167" , "airportLon":"-95.2788889" , "airportElevation": 46.3, "runways": "31R"}
{"iata": "LRD" , "icao": "KLRD" , "airportName": "Laredo International Airport" , "airportCity": "Laredo" , "airporLat" : "27.5441944" , "airportLon":" -99.4615833" , "airportElevation": 508, "runways": "17R"}
{"iata": "LRD" , "icao": "KLRD" , "airportName": "Laredo International Airport" , "airportCity": "Laredo" , "airporLat" : "27.5441944" , "airportLon":" -99.4615833" , "airportElevation": 508, "runways": "35L"}
{"iata": "LRD" , "icao": "KLRD" , "airportName": "Laredo International Airport" , "airportCity": "Laredo" , "airporLat" : "27.5441944" , "airportLon":" -99.4615833" , "airportElevation": 508, "runways": "17L"}
{"iata": "LRD" , "icao": "KLRD" , "airportName": "Laredo International Airport" , "airportCity": "Laredo" , "airporLat" : "27.5441944" , "airportLon":" -99.4615833" , "airportElevation": 508, "runways": "35R"}
{"iata": "LRD" , "icao": "KLRD" , "airportName": "Laredo International Airport" , "airportCity": "Laredo" , "airporLat" : "27.5441944" , "airportLon":" -99.4615833" , "airportElevation": 508, "runways": 14}
{"iata": "LRD" , "icao": "KLRD" , "airportName": "Laredo International Airport" , "airportCity": "Laredo" , "airporLat" : "27.5441944" , "airportLon":" -99.4615833" , "airportElevation": 508, "runways": 32}
{"iata": "GGG" , "icao": "KGGG" , "airportName": "East Texas Regional Airport" , "airportCity": "Longview" , "airporLat" : "32.3840144" , "airportLon":"-94.7114867" , "airportElevation":365.1 , "runways": 13}
{"iata": "GGG" , "icao": "KGGG" , "airportName": "East Texas Regional Airport" , "airportCity": "Longview" , "airporLat" : "32.3840144" , "airportLon":"-94.7114867" , "airportElevation":365.1 , "runways": 31}
{"iata": "GGG" , "icao": "KGGG" , "airportName": "East Texas Regional Airport" , "airportCity": "Longview" , "airporLat" : "32.3840144" , "airportLon":"-94.7114867" , "airportElevation":365.1 , "runways": 18}
{"iata": "GGG" , "icao": "KGGG" , "airportName": "East Texas Regional Airport" , "airportCity": "Longview" , "airporLat" : "32.3840144" , "airportLon":"-94.7114867" , "airportElevation":365.1 , "runways": 36}
{"iata": "LBB" , "icao": "KLBB" , "airportName": "Lubbock Preston Smith International Airport" , "airportCity": "Lubbock" , "airporLat" : "33.6636667" , "airportLon":"-101.8205556" , "airportElevation":3282.4 , "runways": "17R"}
{"iata": "LBB" , "icao": "KLBB" , "airportName": "Lubbock Preston Smith International Airport" , "airportCity": "Lubbock" , "airporLat" : "33.6636667" , "airportLon":"-101.8205556" , "airportElevation":3282.4 , "runways": "35L"}
{"iata": "LBB" , "icao": "KLBB" , "airportName": "Lubbock Preston Smith International Airport" , "airportCity": "Lubbock" , "airporLat" : "33.6636667" , "airportLon":"-101.8205556" , "airportElevation":3282.4 , "runways": 8}
{"iata": "LBB" , "icao": "KLBB" , "airportName": "Lubbock Preston Smith International Airport" , "airportCity": "Lubbock" , "airporLat" : "33.6636667" , "airportLon":"-101.8205556" , "airportElevation":3282.4 , "runways": 26}
{"iata": "LBB" , "icao": "KLBB" , "airportName": "Lubbock Preston Smith International Airport" , "airportCity": "Lubbock" , "airporLat" : "33.6636667" , "airportLon":"-101.8205556" , "airportElevation":3282.4 , "runways": "17L"}
{"iata": "LBB" , "icao": "KLBB" , "airportName": "Lubbock Preston Smith International Airport" , "airportCity": "Lubbock" , "airporLat" : "33.6636667" , "airportLon":"-101.8205556" , "airportElevation":3282.4 , "runways": "35R"}
{"iata": "MFE" , "icao": "KMFE" , "airportName": "Mcallen-Miller International Airport" , "airportCity": "McAllen" , "airporLat" : "26.1758333" , "airportLon":"-98.2386111" , "airportElevation":107.3 , "runways": 14}
{"iata": "MFE" , "icao": "KMFE" , "airportName": "Mcallen-Miller International Airport" , "airportCity": "McAllen" , "airporLat" : "26.1758333" , "airportLon":"-98.2386111" , "airportElevation":107.3 , "runways": 32}
{"iata": "MFE" , "icao": "KMFE" , "airportName": "Mcallen-Miller International Airport" , "airportCity": "McAllen" , "airporLat" : "26.1758333" , "airportLon":"-98.2386111" , "airportElevation":107.3 , "runways": 18}
{"iata": "MFE" , "icao": "KMFE" , "airportName": "Mcallen-Miller International Airport" , "airportCity": "McAllen" , "airporLat" : "26.1758333" , "airportLon":"-98.2386111" , "airportElevation":107.3 , "runways": 36}
{"iata": "MAF" , "icao": "KMAF" , "airportName": "Midland Internation Airport" , "airportCity": "Midland" , "airporLat" : "31.9425278" , "airportLon":"-102.2019167" , "airportElevation":2872.1 , "runways": "16R"}
{"iata": "MAF" , "icao": "KMAF" , "airportName": "Midland Internation Airport" , "airportCity": "Midland" , "airporLat" : "31.9425278" , "airportLon":"-102.2019167" , "airportElevation":2872.1 , "runways": "34L"}
{"iata": "MAF" , "icao": "KMAF" , "airportName": "Midland Internation Airport" , "airportCity": "Midland" , "airporLat" : "31.9425278" , "airportLon":"-102.2019167" , "airportElevation":2872.1 , "runways": 10}
{"iata": "MAF" , "icao": "KMAF" , "airportName": "Midland Internation Airport" , "airportCity": "Midland" , "airporLat" : "31.9425278" , "airportLon":"-102.2019167" , "airportElevation":2872.1 , "runways": 28}
{"iata": "MAF" , "icao": "KMAF" , "airportName": "Midland Internation Airport" , "airportCity": "Midland" , "airporLat" : "31.9425278" , "airportLon":"-102.2019167" , "airportElevation":2872.1 , "runways": 4}
{"iata": "MAF" , "icao": "KMAF" , "airportName": "Midland Internation Airport" , "airportCity": "Midland" , "airporLat" : "31.9425278" , "airportLon":"-102.2019167" , "airportElevation":2872.1 , "runways": 22}
{"iata": "MAF" , "icao": "KMAF" , "airportName": "Midland Internation Airport" , "airportCity": "Midland" , "airporLat" : "31.9425278" , "airportLon":"-102.2019167" , "airportElevation":2872.1 , "runways": "16L"}
{"iata": "MAF" , "icao": "KMAF" , "airportName": "Midland Internation Airport" , "airportCity": "Midland" , "airporLat" : "31.9425278" , "airportLon":"-102.2019167" , "airportElevation":2872.1 , "runways": "34R"}
{"iata": "SJT" , "icao": "KSJT" , "airportName": "San Angelo Regional Airport" , "airportCity": "San Angelo" , "airporLat" : "31.3577500" , "airportLon":"-100.4963056" , "airportElevation":1918.6 , "runways": 18}
{"iata": "SJT" , "icao": "KSJT" , "airportName": "San Angelo Regional Airport" , "airportCity": "San Angelo" , "airporLat" : "31.3577500" , "airportLon":"-100.4963056" , "airportElevation":1918.6 , "runways": 36}
{"iata": "SJT" , "icao": "KSJT" , "airportName": "San Angelo Regional Airport" , "airportCity": "San Angelo" , "airporLat" : "31.3577500" , "airportLon":"-100.4963056" , "airportElevation":1918.6 , "runways": 3}
{"iata": "SJT" , "icao": "KSJT" , "airportName": "San Angelo Regional Airport" , "airportCity": "San Angelo" , "airporLat" : "31.3577500" , "airportLon":"-100.4963056" , "airportElevation":1918.6 , "runways": 21}
{"iata": "SJT" , "icao": "KSJT" , "airportName": "San Angelo Regional Airport" , "airportCity": "San Angelo" , "airporLat" : "31.3577500" , "airportLon":"-100.4963056" , "airportElevation":1918.6 , "runways": 9}
{"iata": "SJT" , "icao": "KSJT" , "airportName": "San Angelo Regional Airport" , "airportCity": "San Angelo" , "airporLat" : "31.3577500" , "airportLon":"-100.4963056" , "airportElevation":1918.6 , "runways": 27}
{"iata": "SAT" , "icao": "KSAT" , "airportName": "San Antonio International Airport" , "airportCity": "San Antonio" , "airporLat" : "29.5339580" , "airportLon":"-98.4690571" , "airportElevation":809.1 , "runways": 4}
{"iata": "SAT" , "icao": "KSAT" , "airportName": "San Antonio International Airport" , "airportCity": "San Antonio" , "airporLat" : "29.5339580" , "airportLon":"-98.4690571" , "airportElevation":809.1 , "runways": 22}
{"iata": "SAT" , "icao": "KSAT" , "airportName": "San Antonio International Airport" , "airportCity": "San Antonio" , "airporLat" : "29.5339580" , "airportLon":"-98.4690571" , "airportElevation":809.1 , "runways": "13R"}
{"iata": "SAT" , "icao": "KSAT" , "airportName": "San Antonio International Airport" , "airportCity": "San Antonio" , "airporLat" : "29.5339580" , "airportLon":"-98.4690571" , "airportElevation":809.1 , "runways": "31L"}
{"iata": "SAT" , "icao": "KSAT" , "airportName": "San Antonio International Airport" , "airportCity": "San Antonio" , "airporLat" : "29.5339580" , "airportLon":"-98.4690571" , "airportElevation":809.1 , "runways": "13L"}
{"iata": "SAT" , "icao": "KSAT" , "airportName": "San Antonio International Airport" , "airportCity": "San Antonio" , "airporLat" : "29.5339580" , "airportLon":"-98.4690571" , "airportElevation":809.1 , "runways": "31R"}
{"iata": "TYR" , "icao": "KTYR" , "airportName": "Tyler Pounds Regional Airport" , "airportCity": "Tyler" , "airporLat" : "32.3538311" , "airportLon":"-95.4026909" , "airportElevation":544.1 , "runways": 4}
{"iata": "TYR" , "icao": "KTYR" , "airportName": "Tyler Pounds Regional Airport" , "airportCity": "Tyler" , "airporLat" : "32.3538311" , "airportLon":"-95.4026909" , "airportElevation":544.1 , "runways": 22}
{"iata": "TYR" , "icao": "KTYR" , "airportName": "Tyler Pounds Regional Airport" , "airportCity": "Tyler" , "airporLat" : "32.3538311" , "airportLon":"-95.4026909" , "airportElevation":544.1 , "runways": 13}
{"iata": "TYR" , "icao": "KTYR" , "airportName": "Tyler Pounds Regional Airport" , "airportCity": "Tyler" , "airporLat" : "32.3538311" , "airportLon":"-95.4026909" , "airportElevation":544.1 , "runways": 31}
{"iata": "TYR" , "icao": "KTYR" , "airportName": "Tyler Pounds Regional Airport" , "airportCity": "Tyler" , "airporLat" : "32.3538311" , "airportLon":"-95.4026909" , "airportElevation":544.1 , "runways": 17}
{"iata": "TYR" , "icao": "KTYR" , "airportName": "Tyler Pounds Regional Airport" , "airportCity": "Tyler" , "airporLat" : "32.3538311" , "airportLon":"-95.4026909" , "airportElevation":544.1 , "runways": 35}
{"iata": "ACT" , "icao": "KACT" , "airportName": "Waco Regional Airport" , "airportCity": "Waco" , "airporLat" : "31.6121944" , "airportLon":"-97.2303056" , "airportElevation":516 , "runways": 1}
{"iata": "ACT" , "icao": "KACT" , "airportName": "Waco Regional Airport" , "airportCity": "Waco" , "airporLat" : "31.6121944" , "airportLon":"-97.2303056" , "airportElevation":516 , "runways": 19}
{"iata": "ACT" , "icao": "KACT" , "airportName": "Waco Regional Airport" , "airportCity": "Waco" , "airporLat" : "31.6121944" , "airportLon":"-97.2303056" , "airportElevation":516 , "runways": 14}
{"iata": "ACT" , "icao": "KACT" , "airportName": "Waco Regional Airport" , "airportCity": "Waco" , "airporLat" : "31.6121944" , "airportLon":"-97.2303056" , "airportElevation":516 , "runways": 32}
{"iata": "SPS" , "icao": "KSPS" , "airportName": "Wichita Falls Municipal Airport/ Sheppard Air Force Base" , "airportCity": "Wichita Falls" , "airporLat" : "33.9888028" , "airportLon":"-98.4919028" , "airportElevation": 998.3, "runways": "15R"}
{"iata": "SPS" , "icao": "KSPS" , "airportName": "Wichita Falls Municipal Airport/ Sheppard Air Force Base" , "airportCity": "Wichita Falls" , "airporLat" : "33.9888028" , "airportLon":"-98.4919028" , "airportElevation": 	1000.2, "runways": "33L"}
{"iata": "SPS" , "icao": "KSPS" , "airportName": "Wichita Falls Municipal Airport/ Sheppard Air Force Base" , "airportCity": "Wichita Falls" , "airporLat" : "33.9888028" , "airportLon":"-98.4919028" , "airportElevation": 	1000.2, "runways": "15C"}
{"iata": "SPS" , "icao": "KSPS" , "airportName": "Wichita Falls Municipal Airport/ Sheppard Air Force Base" , "airportCity": "Wichita Falls" , "airporLat" : "33.9888028" , "airportLon":"-98.4919028" , "airportElevation": 	1000.2, "runways": "33C"}
{"iata": "SPS" , "icao": "KSPS" , "airportName": "Wichita Falls Municipal Airport/ Sheppard Air Force Base" , "airportCity": "Wichita Falls" , "airporLat" : "33.9888028" , "airportLon":"-98.4919028" , "airportElevation": 	1000.2, "runways": "17"}
{"iata": "SPS" , "icao": "KSPS" , "airportName": "Wichita Falls Municipal Airport/ Sheppard Air Force Base" , "airportCity": "Wichita Falls" , "airporLat" : "33.9888028" , "airportLon":"-98.4919028" , "airportElevation": 	1000.2, "runways": "35"}
{"iata": "SPS" , "icao": "KSPS" , "airportName": "Wichita Falls Municipal Airport/ Sheppard Air Force Base" , "airportCity": "Wichita Falls" , "airporLat" : "33.9888028" , "airportLon":"-98.4919028" , "airportElevation": 	1000.2, "runways": "15L"}
{"iata": "SPS" , "icao": "KSPS" , "airportName": "Wichita Falls Municipal Airport/ Sheppard Air Force Base" , "airportCity": "Wichita Falls" , "airporLat" : "33.9888028" , "airportLon":"-98.4919028" , "airportElevation": 	1000.2, "runways": "33R"}
